$INDBT,,,002655.4,M,,*06
$NABAT,+0,29/04/23,00:01:48.400,N,40,59.61401,E,004,35.08304,338.60,005.02,342.91,006.25,358.89,01.43,337.77,CB4,14,+2,02655.4,
$INGLL,4059.61401,N,00435.08304,E,000148.40,A*1A
$INGGA,000148.40,4059.61401,N,00435.08304,E,4,18,00.0,046.406,M,0.0,M,0.0,0000*50
$INVTG,342.91,T,337.77,M,006.25,N,011.58,K,D*30
$INZDA,000148.40,29,04,2023,+02,00*5A
$INDBT,,,002655.4,M,,*06
$NABAT,+0,29/04/23,00:01:49.400,N,40,59.61567,E,004,35.08236,338.59,005.02,342.90,006.25,358.89,01.43,337.69,CB4,14,+3,02655.4,
$INGLL,4059.61567,N,00435.08236,E,000149.40,A*1A
$INGGA,000149.40,4059.61567,N,00435.08236,E,4,18,00.0,046.407,M,0.0,M,0.0,0000*51
$INVTG,342.90,T,337.69,M,006.25,N,011.58,K,D*3E
$INZDA,000149.40,29,04,2023,+02,00*5B
$INDBT,,,002655.4,M,,*06
$NABAT,+0,29/04/23,00:01:50.400,N,40,59.61733,E,004,35.08167,338.59,005.02,342.88,006.25,359.01,01.39,337.61,CB4,14,+4,02655.4,
$INGLL,4059.61733,N,00435.08167,E,000150.40,A*16
$INGGA,000150.40,4059.61733,N,00435.08167,E,4,18,00.0,046.410,M,0.0,M,0.0,0000*5B
$INVTG,342.88,T,337.61,M,006.25,N,011.58,K,D*3F
$INZDA,000150.40,29,04,2023,+02,00*53
$INDBT,,,002655.4,M,,*06
$NABAT,+0,29/04/23,00:01:51.400,N,40,59.61899,E,004,35.08097,338.58,005.02,342.84,006.26,359.01,01.39,337.57,CB4,14,+5,02655.4,
$INGLL,4059.61899,N,00435.08097,E,000151.40,A*16
$INGGA,000151.40,4059.61899,N,00435.08097,E,4,18,00.0,046.417,M,0.0,M,0.0,0000*5C
$INVTG,342.84,T,337.57,M,006.26,N,011.59,K,D*34
$INZDA,000151.40,29,04,2023,+02,00*52
$INDBT,,,002655.4,M,,*06
$NABAT,+0,29/04/23,00:01:52.400,N,40,59.62065,E,004,35.08027,338.56,005.01,342.82,006.26,359.01,01.39,337.54,CB4,14,+6,02655.4,
$INGLL,4059.62065,N,00435.08027,E,000152.40,A*16
$INGGA,000152.40,4059.62065,N,00435.08027,E,4,18,00.0,046.423,M,0.0,M,0.0,0000*5B
$INVTG,342.82,T,337.54,M,006.26,N,011.59,K,D*31
$INZDA,000152.40,29,04,2023,+02,00*51
$INDBT,,,002655.3,M,,*01
$NABAT,+0,29/04/23,00:01:53.400,N,40,59.62231,E,004,35.07958,338.54,005.01,342.80,006.26,359.01,01.39,337.49,CB4,14,+7,02655.3,
$INGLL,4059.62231,N,00435.07958,E,000153.40,A*1A
$INGGA,000153.40,4059.62231,N,00435.07958,E,4,18,00.0,046.419,M,0.0,M,0.0,0000*5E
$INVTG,342.80,T,337.49,M,006.26,N,011.59,K,D*3F
$INZDA,000153.40,29,04,2023,+02,00*50
$INDBT,,,002655.3,M,,*01
$NABAT,+0,29/04/23,00:01:54.400,N,40,59.62397,E,004,35.07889,338.52,005.01,342.78,006.26,359.01,01.39,337.42,CB4,14,+8,02655.3,
$INGLL,4059.62397,N,00435.07889,E,000154.40,A*1D
$INGGA,000154.40,4059.62397,N,00435.07889,E,4,18,00.0,046.404,M,0.0,M,0.0,0000*55
$INVTG,342.78,T,337.42,M,006.26,N,011.59,K,D*33
$INZDA,000154.40,29,04,2023,+02,00*57
$INDBT,,,002655.3,M,,*01
$NABAT,+0,29/04/23,00:01:55.400,N,40,59.62562,E,004,35.07820,338.50,005.00,342.76,006.26,359.01,01.39,337.36,CB4,14,+9,02655.3,
$INGLL,4059.62562,N,00435.07820,E,000155.40,A*13
$INGGA,000155.40,4059.62562,N,00435.07820,E,4,18,00.0,046.388,M,0.0,M,0.0,0000*58
$INVTG,342.76,T,337.36,M,006.26,N,011.59,K,D*3E
$INZDA,000155.40,29,04,2023,+02,00*56
$INDBT,,,002655.3,M,,*01
$NABAT,+0,29/04/23,00:01:56.400,N,40,59.62728,E,004,35.07750,338.48,005.00,342.73,006.26,359.01,01.39,337.33,CB4,14,+0,02655.3,
$INGLL,4059.62728,N,00435.07750,E,000156.40,A*14
$INGGA,000156.40,4059.62728,N,00435.07750,E,4,18,00.0,046.396,M,0.0,M,0.0,0000*50
$INVTG,342.73,T,337.33,M,006.26,N,011.59,K,D*3E
$INZDA,000156.40,29,04,2023,+02,00*55
$INDBT,,,002655.3,M,,*01
$NABAT,+0,29/04/23,00:01:57.400,N,40,59.62894,E,004,35.07679,338.45,005.00,342.69,006.26,359.01,01.39,337.33,CB4,14,+1,02655.3,
$INGLL,4059.62894,N,00435.07679,E,000157.40,A*17
$INGGA,000157.40,4059.62894,N,00435.07679,E,4,18,00.0,046.423,M,0.0,M,0.0,0000*5A
$INVTG,342.69,T,337.33,M,006.26,N,011.59,K,D*35
$INZDA,000157.40,29,04,2023,+02,00*54
$INDBT,,,002655.3,M,,*01
$NABAT,+0,29/04/23,00:01:58.400,N,40,59.63060,E,004,35.07608,338.41,005.00,342.66,006.26,359.01,01.39,337.29,CB4,14,+2,02655.3,
$INGLL,4059.63060,N,00435.07608,E,000158.40,A*1C
$INGGA,000158.40,4059.63060,N,00435.07608,E,4,18,00.0,046.440,M,0.0,M,0.0,0000*54
$INVTG,342.66,T,337.29,M,006.26,N,011.59,K,D*31
$INZDA,000158.40,29,04,2023,+02,00*5B
$INDBT,,,002655.3,M,,*01
$NABAT,+0,29/04/23,00:01:59.400,N,40,59.63225,E,004,35.07537,338.37,004.99,342.62,006.26,359.01,01.39,337.23,CB4,14,+3,02655.3,
$INGLL,4059.63225,N,00435.07537,E,000159.40,A*11
$INGGA,000159.40,4059.63225,N,00435.07537,E,4,18,00.0,046.430,M,0.0,M,0.0,0000*5E
$INVTG,342.62,T,337.23,M,006.26,N,011.59,K,D*3F
$INZDA,000159.40,29,04,2023,+02,00*5A
$INDBT,,,002655.3,M,,*01
$NABAT,+0,29/04/23,00:02:00.400,N,40,59.63391,E,004,35.07466,338.34,004.99,342.58,006.26,359.07,01.35,337.22,CB4,14,+4,02655.3,
$INGLL,4059.63391,N,00435.07466,E,000200.40,A*15
$INGGA,000200.40,4059.63391,N,00435.07466,E,4,18,00.0,046.411,M,0.0,M,0.0,0000*59
$INVTG,342.58,T,337.22,M,006.26,N,011.59,K,D*37
$INZDA,000200.40,29,04,2023,+02,00*55
$INDBT,,,002655.3,M,,*01
$NABAT,+0,29/04/23,00:02:01.400,N,40,59.63556,E,004,35.07396,338.30,004.98,342.56,006.26,359.07,01.35,337.22,CB4,14,+5,02655.3,
$INGLL,4059.63556,N,00435.07396,E,000201.40,A*11
$INGGA,000201.40,4059.63556,N,00435.07396,E,4,18,00.0,046.403,M,0.0,M,0.0,0000*5E
$INVTG,342.56,T,337.22,M,006.26,N,011.59,K,D*39
$INZDA,000201.40,29,04,2023,+02,00*54
$INDBT,,,002655.3,M,,*01
$NABAT,+0,29/04/23,00:02:02.400,N,40,59.63722,E,004,35.07325,338.26,004.98,342.53,006.26,359.07,01.35,337.20,CB4,14,+6,02655.3,
$INGLL,4059.63722,N,00435.07325,E,000202.40,A*1B
$INGGA,000202.40,4059.63722,N,00435.07325,E,4,18,00.0,046.410,M,0.0,M,0.0,0000*56
$INVTG,342.53,T,337.20,M,006.26,N,011.59,K,D*3E
$INZDA,000202.40,29,04,2023,+02,00*57
$INDBT,,,002655.3,M,,*01
$NABAT,+0,29/04/23,00:02:03.400,N,40,59.63887,E,004,35.07254,338.22,004.97,342.50,006.26,359.07,01.35,337.17,CB4,14,+7,02655.3,
$INGLL,4059.63887,N,00435.07254,E,000203.40,A*1D
$INGGA,000203.40,4059.63887,N,00435.07254,E,4,18,00.0,046.424,M,0.0,M,0.0,0000*57
$INVTG,342.50,T,337.17,M,006.26,N,011.59,K,D*39
$INZDA,000203.40,29,04,2023,+02,00*56
$INDBT,,,002655.3,M,,*01
$NABAT,+0,29/04/23,00:02:04.400,N,40,59.64053,E,004,35.07183,338.19,004.97,342.47,006.26,359.07,01.35,337.16,CB4,14,+8,02655.3,
$INGLL,4059.64053,N,00435.07183,E,000204.40,A*15
$INGGA,000204.40,4059.64053,N,00435.07183,E,4,18,00.0,046.431,M,0.0,M,0.0,0000*5B
$INVTG,342.47,T,337.16,M,006.26,N,011.60,K,D*34
$INZDA,000204.40,29,04,2023,+02,00*51
$INDBT,,,002655.3,M,,*01
$NABAT,+0,29/04/23,00:02:05.400,N,40,59.64219,E,004,35.07111,338.14,004.97,342.44,006.26,359.07,01.35,337.14,CB4,14,+9,02655.3,
$INGLL,4059.64219,N,00435.07111,E,000205.40,A*13
$INGGA,000205.40,4059.64219,N,00435.07111,E,4,18,00.0,046.433,M,0.0,M,0.0,0000*5F
$INVTG,342.44,T,337.14,M,006.26,N,011.60,K,D*35
$INZDA,000205.40,29,04,2023,+02,00*50
$INDBT,,,002655.3,M,,*01
$NABAT,+0,29/04/23,00:02:06.400,N,40,59.64384,E,004,35.07039,338.11,004.96,342.39,006.26,359.07,01.35,337.12,CB4,14,+0,02655.3,
$INGLL,4059.64384,N,00435.07039,E,000206.40,A*1E
$INGGA,000206.40,4059.64384,N,00435.07039,E,4,18,00.0,046.433,M,0.0,M,0.0,0000*52
$INVTG,342.39,T,337.12,M,006.26,N,011.60,K,D*39
$INZDA,000206.40,29,04,2023,+02,00*53
$INDBT,,,002655.3,M,,*01
$NABAT,+0,29/04/23,00:02:07.400,N,40,59.64550,E,004,35.06966,338.07,004.96,342.35,006.26,359.07,01.35,337.12,CB4,14,+1,02655.3,
$INGLL,4059.64550,N,00435.06966,E,000207.40,A*12
$INGGA,000207.40,4059.64550,N,00435.06966,E,4,18,00.0,046.426,M,0.0,M,0.0,0000*5A
$INVTG,342.35,T,337.12,M,006.26,N,011.60,K,D*35
$INZDA,000207.40,29,04,2023,+02,00*52
$INDBT,,,002655.3,M,,*01
$NABAT,+0,29/04/23,00:02:08.400,N,40,59.64715,E,004,35.06895,338.02,004.96,342.32,006.26,359.07,01.35,337.14,CB4,14,+2,02655.3,
$INGLL,4059.64715,N,00435.06895,E,000208.40,A*13
$INGGA,000208.40,4059.64715,N,00435.06895,E,4,18,00.0,046.415,M,0.0,M,0.0,0000*5B
$INVTG,342.32,T,337.14,M,006.26,N,011.60,K,D*34
$INZDA,000208.40,29,04,2023,+02,00*5D
$INDBT,,,002655.3,M,,*01
$NABAT,+0,29/04/23,00:02:09.400,N,40,59.64881,E,004,35.06822,337.97,004.95,342.28,006.26,359.07,01.35,337.15,CB4,14,+3,02655.3,
$INGLL,4059.64881,N,00435.06822,E,000209.40,A*1C
$INGGA,000209.40,4059.64881,N,00435.06822,E,4,18,00.0,046.414,M,0.0,M,0.0,0000*55
$INVTG,342.28,T,337.15,M,006.26,N,011.60,K,D*3E
$INZDA,000209.40,29,04,2023,+02,00*5C
$INDBT,,,002655.3,M,,*01
$NABAT,+0,29/04/23,00:02:10.400,N,40,59.65046,E,004,35.06750,337.93,004.95,342.24,006.26,358.98,01.33,337.14,CB4,14,+4,02655.3,
$INGLL,4059.65046,N,00435.06750,E,000210.40,A*1C
$INGGA,000210.40,4059.65046,N,00435.06750,E,4,18,00.0,046.418,M,0.0,M,0.0,0000*59
$INVTG,342.24,T,337.14,M,006.26,N,011.60,K,D*33
$INZDA,000210.40,29,04,2023,+02,00*54
$INDBT,,,002655.3,M,,*01
$NABAT,+0,29/04/23,00:02:11.400,N,40,59.65212,E,004,35.06678,337.89,004.95,342.22,006.27,358.98,01.33,337.13,CB4,14,+5,02655.3,
$INGLL,4059.65212,N,00435.06678,E,000211.40,A*15
$INGGA,000211.40,4059.65212,N,00435.06678,E,4,18,00.0,046.417,M,0.0,M,0.0,0000*5F
$INVTG,342.22,T,337.13,M,006.27,N,011.60,K,D*33
$INZDA,000211.40,29,04,2023,+02,00*55
$INDBT,,,002655.3,M,,*01
$NABAT,+0,29/04/23,00:02:12.400,N,40,59.65378,E,004,35.06605,337.86,004.95,342.19,006.27,358.98,01.33,337.12,CB4,14,+6,02655.3,
$INGLL,4059.65378,N,00435.06605,E,000212.40,A*11
$INGGA,000212.40,4059.65378,N,00435.06605,E,4,18,00.0,046.422,M,0.0,M,0.0,0000*5D
$INVTG,342.19,T,337.12,M,006.27,N,011.61,K,D*3B
$INZDA,000212.40,29,04,2023,+02,00*56
$INDBT,,,002655.3,M,,*01
$NABAT,+0,29/04/23,00:02:13.400,N,40,59.65543,E,004,35.06532,337.83,004.94,342.15,006.27,358.98,01.33,337.12,CB4,14,+7,02655.3,
$INGLL,4059.65543,N,00435.06532,E,000213.40,A*19
$INGGA,000213.40,4059.65543,N,00435.06532,E,4,18,00.0,046.437,M,0.0,M,0.0,0000*51
$INVTG,342.15,T,337.12,M,006.27,N,011.61,K,D*37
$INZDA,000213.40,29,04,2023,+02,00*57
$INDBT,,,002655.3,M,,*01
$NABAT,+0,29/04/23,00:02:14.400,N,40,59.65709,E,004,35.06460,337.80,004.94,342.12,006.27,358.98,01.33,337.13,CB4,14,+8,02655.3,
$INGLL,4059.65709,N,00435.06460,E,000214.40,A*14
$INGGA,000214.40,4059.65709,N,00435.06460,E,4,18,00.0,046.431,M,0.0,M,0.0,0000*5A
$INVTG,342.12,T,337.13,M,006.27,N,011.61,K,D*31
$INZDA,000214.40,29,04,2023,+02,00*50
$INDBT,,,002655.3,M,,*01
$NABAT,+0,29/04/23,00:02:15.400,N,40,59.65875,E,004,35.06388,337.75,004.94,342.11,006.27,358.98,01.33,337.17,CB4,14,+9,02655.3,
$INGLL,4059.65875,N,00435.06388,E,000215.40,A*10
$INGGA,000215.40,4059.65875,N,00435.06388,E,4,18,00.0,046.404,M,0.0,M,0.0,0000*58
$INVTG,342.11,T,337.17,M,006.27,N,011.61,K,D*36
$INZDA,000215.40,29,04,2023,+02,00*51
$INDBT,,,002655.3,M,,*01
$NABAT,+0,29/04/23,00:02:16.400,N,40,59.66041,E,004,35.06315,337.71,004.95,342.08,006.27,358.98,01.33,337.20,CB4,14,+0,02655.3,
$INGLL,4059.66041,N,00435.06315,E,000216.40,A*1B
$INGGA,000216.40,4059.66041,N,00435.06315,E,4,18,00.0,046.394,M,0.0,M,0.0,0000*5D
$INVTG,342.08,T,337.20,M,006.27,N,011.61,K,D*3A
$INZDA,000216.40,29,04,2023,+02,00*52
$INDBT,,,002655.3,M,,*01
$NABAT,+0,29/04/23,00:02:17.400,N,40,59.66206,E,004,35.06242,337.67,004.95,342.04,006.27,358.98,01.33,337.20,CB4,14,+1,02655.3,
$INGLL,4059.66206,N,00435.06242,E,000217.40,A*18
$INGGA,000217.40,4059.66206,N,00435.06242,E,4,18,00.0,046.408,M,0.0,M,0.0,0000*5C
$INVTG,342.04,T,337.20,M,006.27,N,011.61,K,D*36
$INZDA,000217.40,29,04,2023,+02,00*53
$INDBT,,,002655.3,M,,*01
$NABAT,+0,29/04/23,00:02:18.400,N,40,59.66371,E,004,35.06168,337.64,004.95,342.00,006.27,358.98,01.33,337.21,CB4,14,+2,02655.3,
$INGLL,4059.66371,N,00435.06168,E,000218.40,A*1D
$INGGA,000218.40,4059.66371,N,00435.06168,E,4,18,00.0,046.415,M,0.0,M,0.0,0000*55
$INVTG,342.00,T,337.21,M,006.27,N,011.61,K,D*33
$INZDA,000218.40,29,04,2023,+02,00*5C
$INDBT,,,002655.3,M,,*01
$NABAT,+0,29/04/23,00:02:19.400,N,40,59.66537,E,004,35.06096,337.61,004.95,341.99,006.27,358.98,01.33,337.23,CB4,14,+3,02655.3,
$INGLL,4059.66537,N,00435.06096,E,000219.40,A*18
$INGGA,000219.40,4059.66537,N,00435.06096,E,4,18,00.0,046.408,M,0.0,M,0.0,0000*5C
$INVTG,341.99,T,337.23,M,006.27,N,011.62,K,D*31
$INZDA,000219.40,29,04,2023,+02,00*5D
$INDBT,,,002655.3,M,,*01
$NABAT,+0,29/04/23,00:02:20.400,N,40,59.66703,E,004,35.06023,337.58,004.95,341.97,006.27,358.67,01.33,337.24,CB4,14,+4,02655.3,
$INGLL,4059.66703,N,00435.06023,E,000220.40,A*19
$INGGA,000220.40,4059.66703,N,00435.06023,E,4,18,00.0,046.412,M,0.0,M,0.0,0000*56
$INVTG,341.97,T,337.24,M,006.27,N,011.62,K,D*38
$INZDA,000220.40,29,04,2023,+02,00*57
$INDBT,,,002655.3,M,,*01
$NABAT,+0,29/04/23,00:02:21.400,N,40,59.66869,E,004,35.05950,337.56,004.95,341.94,006.27,358.67,01.33,337.25,CB4,14,+5,02655.3,
$INGLL,4059.66869,N,00435.05950,E,000221.40,A*15
$INGGA,000221.40,4059.66869,N,00435.05950,E,4,18,00.0,046.420,M,0.0,M,0.0,0000*5B
$INVTG,341.94,T,337.25,M,006.27,N,011.62,K,D*3A
$INZDA,000221.40,29,04,2023,+02,00*56
$INDBT,,,002655.3,M,,*01
$NABAT,+0,29/04/23,00:02:22.400,N,40,59.67034,E,004,35.05877,337.53,004.95,341.92,006.28,358.67,01.33,337.27,CB4,14,+6,02655.3,
$INGLL,4059.67034,N,00435.05877,E,000222.40,A*13
$INGGA,000222.40,4059.67034,N,00435.05877,E,4,18,00.0,046.416,M,0.0,M,0.0,0000*58
$INVTG,341.92,T,337.27,M,006.28,N,011.62,K,D*31
$INZDA,000222.40,29,04,2023,+02,00*55
$INDBT,,,002655.3,M,,*01
$NABAT,+0,29/04/23,00:02:23.400,N,40,59.67200,E,004,35.05804,337.51,004.95,341.90,006.28,358.67,01.33,337.29,CB4,14,+7,02655.3,
$INGLL,4059.67200,N,00435.05804,E,000223.40,A*13
$INGGA,000223.40,4059.67200,N,00435.05804,E,4,18,00.0,046.410,M,0.0,M,0.0,0000*5E
$INVTG,341.90,T,337.29,M,006.28,N,011.62,K,D*3D
$INZDA,000223.40,29,04,2023,+02,00*54
$INDBT,,,002655.3,M,,*01
$NABAT,+0,29/04/23,00:02:24.400,N,40,59.67365,E,004,35.05731,337.49,004.96,341.87,006.28,358.67,01.33,337.33,CB4,14,+8,02655.3,
$INGLL,4059.67365,N,00435.05731,E,000224.40,A*1F
$INGGA,000224.40,4059.67365,N,00435.05731,E,4,18,00.0,046.412,M,0.0,M,0.0,0000*50
$INVTG,341.87,T,337.33,M,006.28,N,011.62,K,D*30
$INZDA,000224.40,29,04,2023,+02,00*53
$INDBT,,,002655.4,M,,*06
$NABAT,+0,29/04/23,00:02:25.400,N,40,59.67531,E,004,35.05658,337.47,004.95,341.86,006.28,358.67,01.33,337.40,CB4,14,+9,02655.4,
$INGLL,4059.67531,N,00435.05658,E,000225.40,A*17
$INGGA,000225.40,4059.67531,N,00435.05658,E,4,18,00.0,046.413,M,0.0,M,0.0,0000*59
$INVTG,341.86,T,337.40,M,006.28,N,011.62,K,D*35
$INZDA,000225.40,29,04,2023,+02,00*52
$INDBT,,,002655.4,M,,*06
$NABAT,+0,29/04/23,00:02:26.400,N,40,59.67696,E,004,35.05585,337.43,004.95,341.84,006.27,358.67,01.33,337.43,CB4,14,+0,02655.4,
$INGLL,4059.67696,N,00435.05585,E,000226.40,A*19
$INGGA,000226.40,4059.67696,N,00435.05585,E,4,18,00.0,046.421,M,0.0,M,0.0,0000*56
$INVTG,341.84,T,337.43,M,006.27,N,011.62,K,D*3B
$INZDA,000226.40,29,04,2023,+02,00*51
$INDBT,,,002655.4,M,,*06
$NABAT,+0,29/04/23,00:02:27.400,N,40,59.67861,E,004,35.05512,337.41,004.95,341.83,006.28,358.67,01.33,337.43,CB4,14,+1,02655.4,
$INGLL,4059.67861,N,00435.05512,E,000227.40,A*10
$INGGA,000227.40,4059.67861,N,00435.05512,E,4,18,00.0,046.422,M,0.0,M,0.0,0000*5C
$INVTG,341.83,T,337.43,M,006.28,N,011.62,K,D*33
$INZDA,000227.40,29,04,2023,+02,00*50
$INDBT,,,002655.4,M,,*06
$NABAT,+0,29/04/23,00:02:28.400,N,40,59.68027,E,004,35.05440,337.40,004.95,341.82,006.28,358.67,01.33,337.46,CB4,14,+2,02655.4,
$INGLL,4059.68027,N,00435.05440,E,000228.40,A*1C
$INGGA,000228.40,4059.68027,N,00435.05440,E,4,18,00.0,046.410,M,0.0,M,0.0,0000*51
$INVTG,341.82,T,337.46,M,006.28,N,011.62,K,D*37
$INZDA,000228.40,29,04,2023,+02,00*5F
$INDBT,,,002655.3,M,,*01
$NABAT,+0,29/04/23,00:02:29.400,N,40,59.68193,E,004,35.05366,337.39,004.95,341.81,006.28,358.67,01.33,337.49,CB4,14,+3,02655.3,
$INGLL,4059.68193,N,00435.05366,E,000229.40,A*10
$INGGA,000229.40,4059.68193,N,00435.05366,E,4,18,00.0,046.407,M,0.0,M,0.0,0000*5B
$INVTG,341.81,T,337.49,M,006.28,N,011.63,K,D*3A
$INZDA,000229.40,29,04,2023,+02,00*5E
$INDBT,,,002655.3,M,,*01
$NABAT,+0,29/04/23,00:02:30.400,N,40,59.68359,E,004,35.05293,337.37,004.96,341.80,006.28,358.31,01.36,337.51,CB4,14,+4,02655.3,
$INGLL,4059.68359,N,00435.05293,E,000230.40,A*17
$INGGA,000230.40,4059.68359,N,00435.05293,E,4,18,00.0,046.423,M,0.0,M,0.0,0000*5A
$INVTG,341.80,T,337.51,M,006.28,N,011.63,K,D*32
$INZDA,000230.40,29,04,2023,+02,00*56
$INDBT,,,002655.3,M,,*01
$NABAT,+0,29/04/23,00:02:31.400,N,40,59.68525,E,004,35.05221,337.36,004.96,341.80,006.28,358.31,01.36,337.56,CB4,14,+5,02655.3,
$INGLL,4059.68525,N,00435.05221,E,000231.40,A*12
$INGGA,000231.40,4059.68525,N,00435.05221,E,4,18,00.0,046.427,M,0.0,M,0.0,0000*5B
$INVTG,341.80,T,337.56,M,006.28,N,011.63,K,D*35
$INZDA,000231.40,29,04,2023,+02,00*57
$INDBT,,,002655.3,M,,*01
$NABAT,+0,29/04/23,00:02:32.400,N,40,59.68691,E,004,35.05150,337.34,004.96,341.80,006.28,358.31,01.36,337.63,CB4,14,+6,02655.3,
$INGLL,4059.68691,N,00435.05150,E,000232.40,A*18
$INGGA,000232.40,4059.68691,N,00435.05150,E,4,18,00.0,046.410,M,0.0,M,0.0,0000*55
$INVTG,341.80,T,337.63,M,006.28,N,011.63,K,D*33
$INZDA,000232.40,29,04,2023,+02,00*54
$INDBT,,,002655.4,M,,*06
$NABAT,+0,29/04/23,00:02:33.400,N,40,59.68856,E,004,35.05077,337.32,004.96,341.79,006.28,358.31,01.36,337.69,CB4,14,+7,02655.4,
$INGLL,4059.68856,N,00435.05077,E,000233.40,A*18
$INGGA,000233.40,4059.68856,N,00435.05077,E,4,18,00.0,046.403,M,0.0,M,0.0,0000*57
$INVTG,341.79,T,337.69,M,006.28,N,011.63,K,D*3F
$INZDA,000233.40,29,04,2023,+02,00*55
$INDBT,,,002655.4,M,,*06
$NABAT,+0,29/04/23,00:02:34.400,N,40,59.69021,E,004,35.05003,337.30,004.95,341.77,006.28,358.31,01.36,337.72,CB4,14,+8,02655.4,
$INGLL,4059.69021,N,00435.05003,E,000234.40,A*15
$INGGA,000234.40,4059.69021,N,00435.05003,E,4,18,00.0,046.414,M,0.0,M,0.0,0000*5C
$INVTG,341.77,T,337.72,M,006.28,N,011.63,K,D*3B
$INZDA,000234.40,29,04,2023,+02,00*52
$INDBT,,,002655.4,M,,*06
$NABAT,+0,29/04/23,00:02:35.400,N,40,59.69187,E,004,35.04930,337.30,004.95,341.76,006.28,358.31,01.36,337.76,CB4,14,+9,02655.4,
$INGLL,4059.69187,N,00435.04930,E,000235.40,A*11
$INGGA,000235.40,4059.69187,N,00435.04930,E,4,18,00.0,046.426,M,0.0,M,0.0,0000*59
$INVTG,341.76,T,337.76,M,006.28,N,011.63,K,D*3E
$INZDA,000235.40,29,04,2023,+02,00*53
$INDBT,,,002655.4,M,,*06
$NABAT,+0,29/04/23,00:02:36.400,N,40,59.69353,E,004,35.04858,337.30,004.95,341.77,006.28,358.31,01.36,337.80,CB4,14,+0,02655.4,
$INGLL,4059.69353,N,00435.04858,E,000236.40,A*16
$INGGA,000236.40,4059.69353,N,00435.04858,E,4,18,00.0,046.428,M,0.0,M,0.0,0000*50
$INVTG,341.77,T,337.80,M,006.28,N,011.63,K,D*36
$INZDA,000236.40,29,04,2023,+02,00*50
$INDBT,,,002655.3,M,,*01
$NABAT,+0,29/04/23,00:02:37.400,N,40,59.69520,E,004,35.04787,337.30,004.95,341.78,006.28,358.31,01.36,337.81,CB4,14,+1,02655.3,
$INGLL,4059.69520,N,00435.04787,E,000237.40,A*18
$INGGA,000237.40,4059.69520,N,00435.04787,E,4,18,00.0,046.428,M,0.0,M,0.0,0000*5E
$INVTG,341.78,T,337.81,M,006.28,N,011.63,K,D*38
$INZDA,000237.40,29,04,2023,+02,00*51
$INDBT,,,002655.3,M,,*01
$NABAT,+0,29/04/23,00:02:38.400,N,40,59.69686,E,004,35.04715,337.31,004.95,341.80,006.28,358.31,01.36,337.82,CB4,14,+2,02655.3,
$INGLL,4059.69686,N,00435.04715,E,000238.40,A*13
$INGGA,000238.40,4059.69686,N,00435.04715,E,4,18,00.0,046.427,M,0.0,M,0.0,0000*5A
$INVTG,341.80,T,337.82,M,006.28,N,011.63,K,D*3C
$INZDA,000238.40,29,04,2023,+02,00*5E
$INDBT,,,002655.3,M,,*01
$NABAT,+0,29/04/23,00:02:39.400,N,40,59.69852,E,004,35.04643,337.33,004.95,341.80,006.28,358.31,01.36,337.88,CB4,14,+3,02655.3,
$INGLL,4059.69852,N,00435.04643,E,000239.40,A*17
$INGGA,000239.40,4059.69852,N,00435.04643,E,4,18,00.0,046.422,M,0.0,M,0.0,0000*5B
$INVTG,341.80,T,337.88,M,006.28,N,011.63,K,D*36
$INZDA,000239.40,29,04,2023,+02,00*5F
$INDBT,,,002655.3,M,,*01
$NABAT,+0,29/04/23,00:02:40.400,N,40,59.70017,E,004,35.04571,337.33,004.95,341.81,006.28,357.98,01.39,337.94,CB4,14,+4,02655.3,
$INGLL,4059.70017,N,00435.04571,E,000240.40,A*1A
$INGGA,000240.40,4059.70017,N,00435.04571,E,4,18,00.0,046.406,M,0.0,M,0.0,0000*50
$INVTG,341.81,T,337.94,M,006.28,N,011.63,K,D*3A
$INZDA,000240.40,29,04,2023,+02,00*51
$INDBT,,,002655.2,M,,*00
$NABAT,+0,29/04/23,00:02:41.400,N,40,59.70183,E,004,35.04500,337.33,004.95,341.81,006.28,357.98,01.39,337.97,CB4,14,+5,02655.2,
$INGLL,4059.70183,N,00435.04500,E,000241.40,A*11
$INGGA,000241.40,4059.70183,N,00435.04500,E,4,18,00.0,046.395,M,0.0,M,0.0,0000*56
$INVTG,341.81,T,337.97,M,006.28,N,011.63,K,D*39
$INZDA,000241.40,29,04,2023,+02,00*50
$INDBT,,,002655.2,M,,*00
$NABAT,+0,29/04/23,00:02:42.400,N,40,59.70348,E,004,35.04428,337.33,004.95,341.81,006.28,357.98,01.39,338.00,CB4,14,+6,02655.2,
$INGLL,4059.70348,N,00435.04428,E,000242.40,A*1C
$INGGA,000242.40,4059.70348,N,00435.04428,E,4,18,00.0,046.409,M,0.0,M,0.0,0000*59
$INVTG,341.81,T,338.00,M,006.28,N,011.63,K,D*38
$INZDA,000242.40,29,04,2023,+02,00*53
$INDBT,,,002655.2,M,,*00
$NABAT,+0,29/04/23,00:02:43.400,N,40,59.70514,E,004,35.04356,337.34,004.94,341.81,006.28,357.98,01.39,338.01,CB4,14,+7,02655.2,
$INGLL,4059.70514,N,00435.04356,E,000243.40,A*1C
$INGGA,000243.40,4059.70514,N,00435.04356,E,4,18,00.0,046.429,M,0.0,M,0.0,0000*5B
$INVTG,341.81,T,338.01,M,006.28,N,011.63,K,D*39
$INZDA,000243.40,29,04,2023,+02,00*52
$INDBT,,,002655.2,M,,*00
$NABAT,+0,29/04/23,00:02:44.400,N,40,59.70680,E,004,35.04284,337.37,004.94,341.82,006.28,357.98,01.39,338.00,CB4,14,+8,02655.2,
$INGLL,4059.70680,N,00435.04284,E,000244.40,A*1B
$INGGA,000244.40,4059.70680,N,00435.04284,E,4,18,00.0,046.427,M,0.0,M,0.0,0000*52
$INVTG,341.82,T,338.00,M,006.28,N,011.63,K,D*3B
$INZDA,000244.40,29,04,2023,+02,00*55
$INDBT,,,002655.0,M,,*02
$NABAT,+0,29/04/23,00:02:45.400,N,40,59.70846,E,004,35.04213,337.40,004.95,341.84,006.28,357.98,01.39,338.01,CB4,14,+9,02655.0,
$INGLL,4059.70846,N,00435.04213,E,000245.40,A*10
$INGGA,000245.40,4059.70846,N,00435.04213,E,4,18,00.0,046.409,M,0.0,M,0.0,0000*55
$INVTG,341.84,T,338.01,M,006.28,N,011.63,K,D*3C
$INZDA,000245.40,29,04,2023,+02,00*54
$INDBT,,,002655.0,M,,*02
$NABAT,+0,29/04/23,00:02:46.400,N,40,59.71013,E,004,35.04141,337.43,004.95,341.84,006.28,357.98,01.39,338.03,CB4,14,+0,02655.0,
$INGLL,4059.71013,N,00435.04141,E,000246.40,A*1E
$INGGA,000246.40,4059.71013,N,00435.04141,E,4,18,00.0,046.414,M,0.0,M,0.0,0000*57
$INVTG,341.84,T,338.03,M,006.28,N,011.63,K,D*3E
$INZDA,000246.40,29,04,2023,+02,00*57
$INDBT,,,002655.0,M,,*02
$NABAT,+0,29/04/23,00:02:47.400,N,40,59.71179,E,004,35.04069,337.45,004.95,341.85,006.28,357.98,01.39,338.06,CB4,14,+1,02655.0,
$INGLL,4059.71179,N,00435.04069,E,000247.40,A*19
$INGGA,000247.40,4059.71179,N,00435.04069,E,4,18,00.0,046.434,M,0.0,M,0.0,0000*52
$INVTG,341.85,T,338.06,M,006.28,N,011.63,K,D*3A
$INZDA,000247.40,29,04,2023,+02,00*56
$INDBT,,,002655.0,M,,*02
$NABAT,+0,29/04/23,00:02:48.400,N,40,59.71345,E,004,35.03998,337.46,004.95,341.87,006.28,357.98,01.39,338.09,CB4,14,+2,02655.0,
$INGLL,4059.71345,N,00435.03998,E,000248.40,A*1B
$INGGA,000248.40,4059.71345,N,00435.03998,E,4,18,00.0,046.438,M,0.0,M,0.0,0000*5C
$INVTG,341.87,T,338.09,M,006.28,N,011.63,K,D*37
$INZDA,000248.40,29,04,2023,+02,00*59
$INDBT,,,002654.9,M,,*0A
$NABAT,+0,29/04/23,00:02:49.400,N,40,59.71510,E,004,35.03927,337.47,004.95,341.89,006.28,357.98,01.39,338.12,CB4,14,+3,02654.9,
$INGLL,4059.71510,N,00435.03927,E,000249.40,A*18
$INGGA,000249.40,4059.71510,N,00435.03927,E,4,18,00.0,046.424,M,0.0,M,0.0,0000*52
$INVTG,341.89,T,338.12,M,006.28,N,011.63,K,D*33
$INZDA,000249.40,29,04,2023,+02,00*58
$INDBT,,,002654.9,M,,*0A
$NABAT,+0,29/04/23,00:02:50.400,N,40,59.71676,E,004,35.03856,337.48,004.96,341.89,006.28,357.81,01.41,338.17,CB4,14,+4,02654.9,
$INGLL,4059.71676,N,00435.03856,E,000250.40,A*14
$INGGA,000250.40,4059.71676,N,00435.03856,E,4,18,00.0,046.411,M,0.0,M,0.0,0000*58
$INVTG,341.89,T,338.17,M,006.28,N,011.63,K,D*36
$INZDA,000250.40,29,04,2023,+02,00*50
$INDBT,,,002654.9,M,,*0A
$NABAT,+0,29/04/23,00:02:51.400,N,40,59.71841,E,004,35.03785,337.49,004.95,341.90,006.28,357.81,01.41,338.19,CB4,14,+5,02654.9,
$INGLL,4059.71841,N,00435.03785,E,000251.40,A*1E
$INGGA,000251.40,4059.71841,N,00435.03785,E,4,18,00.0,046.418,M,0.0,M,0.0,0000*5B
$INVTG,341.90,T,338.19,M,006.28,N,011.63,K,D*30
$INZDA,000251.40,29,04,2023,+02,00*51
$INDBT,,,002654.9,M,,*0A
$NABAT,+0,29/04/23,00:02:52.400,N,40,59.72007,E,004,35.03713,337.50,004.95,341.90,006.28,357.81,01.41,338.20,CB4,14,+6,02654.9,
$INGLL,4059.72007,N,00435.03713,E,000252.40,A*1B
$INGGA,000252.40,4059.72007,N,00435.03713,E,4,18,00.0,046.434,M,0.0,M,0.0,0000*50
$INVTG,341.90,T,338.20,M,006.28,N,011.63,K,D*3A
$INZDA,000252.40,29,04,2023,+02,00*52
$INDBT,,,002654.8,M,,*0B
$NABAT,+0,29/04/23,00:02:53.400,N,40,59.72174,E,004,35.03642,337.53,004.95,341.91,006.28,357.81,01.41,338.21,CB4,14,+7,02654.8,
$INGLL,4059.72174,N,00435.03642,E,000253.40,A*1A
$INGGA,000253.40,4059.72174,N,00435.03642,E,4,18,00.0,046.438,M,0.0,M,0.0,0000*5D
$INVTG,341.91,T,338.21,M,006.28,N,011.63,K,D*3A
$INZDA,000253.40,29,04,2023,+02,00*53
$INDBT,,,002654.8,M,,*0B
$NABAT,+0,29/04/23,00:02:54.400,N,40,59.72341,E,004,35.03571,337.56,004.96,341.93,006.28,357.81,01.41,338.22,CB4,14,+8,02654.8,
$INGLL,4059.72341,N,00435.03571,E,000254.40,A*1A
$INGGA,000254.40,4059.72341,N,00435.03571,E,4,18,00.0,046.438,M,0.0,M,0.0,0000*5D
$INVTG,341.93,T,338.22,M,006.28,N,011.64,K,D*3C
$INZDA,000254.40,29,04,2023,+02,00*54
$INDBT,,,002654.8,M,,*0B
$NABAT,+0,29/04/23,00:02:55.400,N,40,59.72508,E,004,35.03500,337.58,004.96,341.95,006.28,357.81,01.41,338.23,CB4,14,+9,02654.8,
$INGLL,4059.72508,N,00435.03500,E,000255.40,A*16
$INGGA,000255.40,4059.72508,N,00435.03500,E,4,18,00.0,046.439,M,0.0,M,0.0,0000*50
$INVTG,341.95,T,338.23,M,006.28,N,011.64,K,D*3B
$INZDA,000255.40,29,04,2023,+02,00*55
$INDBT,,,002654.8,M,,*0B
$NABAT,+0,29/04/23,00:02:56.400,N,40,59.72674,E,004,35.03429,337.61,004.97,341.96,006.29,357.81,01.41,338.27,CB4,14,+0,02654.8,
$INGLL,4059.72674,N,00435.03429,E,000256.40,A*17
$INGGA,000256.40,4059.72674,N,00435.03429,E,4,18,00.0,046.432,M,0.0,M,0.0,0000*5A
$INVTG,341.96,T,338.27,M,006.29,N,011.64,K,D*3D
$INZDA,000256.40,29,04,2023,+02,00*56
$INDBT,,,002654.8,M,,*0B
$NABAT,+0,29/04/23,00:02:57.400,N,40,59.72840,E,004,35.03358,337.62,004.98,341.97,006.28,357.81,01.41,338.32,CB4,14,+1,02654.8,
$INGLL,4059.72840,N,00435.03358,E,000257.40,A*1E
$INGGA,000257.40,4059.72840,N,00435.03358,E,4,18,00.0,046.420,M,0.0,M,0.0,0000*50
$INVTG,341.97,T,338.32,M,006.28,N,011.64,K,D*39
$INZDA,000257.40,29,04,2023,+02,00*57
$INDBT,,,002654.8,M,,*0B
$NABAT,+0,29/04/23,00:02:58.400,N,40,59.73006,E,004,35.03287,337.63,004.98,341.99,006.28,357.81,01.41,338.38,CB4,14,+2,02654.8,
$INGLL,4059.73006,N,00435.03287,E,000258.40,A*19
$INGGA,000258.40,4059.73006,N,00435.03287,E,4,18,00.0,046.415,M,0.0,M,0.0,0000*51
$INVTG,341.99,T,338.38,M,006.28,N,011.64,K,D*3D
$INZDA,000258.40,29,04,2023,+02,00*58
$INDBT,,,002654.8,M,,*0B
$NABAT,+0,29/04/23,00:02:59.400,N,40,59.73171,E,004,35.03217,337.64,004.98,342.00,006.28,357.81,01.41,338.41,CB4,14,+3,02654.8,
$INGLL,4059.73171,N,00435.03217,E,000259.40,A*10
$INGGA,000259.40,4059.73171,N,00435.03217,E,4,18,00.0,046.417,M,0.0,M,0.0,0000*5A
$INVTG,342.00,T,338.41,M,006.28,N,011.63,K,D*37
$INZDA,000259.40,29,04,2023,+02,00*59
$INDBT,,,002654.8,M,,*0B
$NABAT,+0,29/04/23,00:03:00.400,N,40,59.73337,E,004,35.03146,337.65,004.98,342.00,006.28,357.74,01.41,338.42,CB4,14,+4,02654.8,
$INGLL,4059.73337,N,00435.03146,E,000300.40,A*1A
$INGGA,000300.40,4059.73337,N,00435.03146,E,4,18,00.0,046.425,M,0.0,M,0.0,0000*51
$INVTG,342.00,T,338.42,M,006.28,N,011.63,K,D*34
$INZDA,000300.40,29,04,2023,+02,00*54
$INDBT,,,002654.9,M,,*0A
$NABAT,+0,29/04/23,00:03:01.400,N,40,59.73503,E,004,35.03074,337.68,004.98,342.01,006.28,357.74,01.41,338.43,CB4,14,+5,02654.9,
$INGLL,4059.73503,N,00435.03074,E,000301.40,A*1A
$INGGA,000301.40,4059.73503,N,00435.03074,E,4,18,00.0,046.438,M,0.0,M,0.0,0000*5D
$INVTG,342.01,T,338.43,M,006.28,N,011.63,K,D*34
$INZDA,000301.40,29,04,2023,+02,00*55
$INDBT,,,002654.9,M,,*0A
$NABAT,+0,29/04/23,00:03:02.400,N,40,59.73670,E,004,35.03004,337.71,004.98,342.02,006.28,357.74,01.41,338.45,CB4,14,+6,02654.9,
$INGLL,4059.73670,N,00435.03004,E,000302.40,A*19
$INGGA,000302.40,4059.73670,N,00435.03004,E,4,18,00.0,046.440,M,0.0,M,0.0,0000*51
$INVTG,342.02,T,338.45,M,006.28,N,011.64,K,D*36
$INZDA,000302.40,29,04,2023,+02,00*56
$INDBT,,,002654.9,M,,*0A
$NABAT,+0,29/04/23,00:03:03.400,N,40,59.73838,E,004,35.02934,337.74,004.99,342.05,006.29,357.74,01.41,338.46,CB4,14,+7,02654.9,
$INGLL,4059.73838,N,00435.02934,E,000303.40,A*11
$INGGA,000303.40,4059.73838,N,00435.02934,E,4,18,00.0,046.430,M,0.0,M,0.0,0000*5E
$INVTG,342.05,T,338.46,M,006.29,N,011.64,K,D*33
$INZDA,000303.40,29,04,2023,+02,00*57
$INDBT,,,002654.9,M,,*0A
$NABAT,+0,29/04/23,00:03:04.400,N,40,59.74004,E,004,35.02864,337.78,004.99,342.08,006.29,357.74,01.41,338.47,CB4,14,+8,02654.9,
$INGLL,4059.74004,N,00435.02864,E,000304.40,A*12
$INGGA,000304.40,4059.74004,N,00435.02864,E,4,18,00.0,046.430,M,0.0,M,0.0,0000*5D
$INVTG,342.08,T,338.47,M,006.29,N,011.64,K,D*3F
$INZDA,000304.40,29,04,2023,+02,00*50
$INDBT,,,002654.9,M,,*0A
$NABAT,+0,29/04/23,00:03:05.400,N,40,59.74171,E,004,35.02795,337.80,004.99,342.11,006.29,357.74,01.41,338.53,CB4,14,+9,02654.9,
$INGLL,4059.74171,N,00435.02795,E,000305.40,A*11
$INGGA,000305.40,4059.74171,N,00435.02795,E,4,18,00.0,046.433,M,0.0,M,0.0,0000*5D
$INVTG,342.11,T,338.53,M,006.29,N,011.64,K,D*32
$INZDA,000305.40,29,04,2023,+02,00*51
$INDBT,,,002654.9,M,,*0A
$NABAT,+0,29/04/23,00:03:06.400,N,40,59.74336,E,004,35.02724,337.81,004.99,342.12,006.28,357.74,01.41,338.59,CB4,14,+0,02654.9,
$INGLL,4059.74336,N,00435.02724,E,000306.40,A*19
$INGGA,000306.40,4059.74336,N,00435.02724,E,4,18,00.0,046.426,M,0.0,M,0.0,0000*51
$INVTG,342.12,T,338.59,M,006.28,N,011.64,K,D*3A
$INZDA,000306.40,29,04,2023,+02,00*52
$INDBT,,,002654.9,M,,*0A
$NABAT,+0,29/04/23,00:03:07.400,N,40,59.74502,E,004,35.02654,337.82,004.99,342.12,006.28,357.74,01.41,338.64,CB4,14,+1,02654.9,
$INGLL,4059.74502,N,00435.02654,E,000307.40,A*1F
$INGGA,000307.40,4059.74502,N,00435.02654,E,4,18,00.0,046.414,M,0.0,M,0.0,0000*56
$INVTG,342.12,T,338.64,M,006.28,N,011.64,K,D*34
$INZDA,000307.40,29,04,2023,+02,00*53
$INDBT,,,002654.9,M,,*0A
$NABAT,+0,29/04/23,00:03:08.400,N,40,59.74667,E,004,35.02584,337.83,004.99,342.14,006.28,357.74,01.41,338.65,CB4,14,+2,02654.9,
$INGLL,4059.74667,N,00435.02584,E,000308.40,A*1E
$INGGA,000308.40,4059.74667,N,00435.02584,E,4,18,00.0,046.407,M,0.0,M,0.0,0000*55
$INVTG,342.14,T,338.65,M,006.28,N,011.63,K,D*34
$INZDA,000308.40,29,04,2023,+02,00*5C
$INDBT,,,002655.2,M,,*00
$NABAT,+0,29/04/23,00:03:09.400,N,40,59.74834,E,004,35.02515,337.86,004.99,342.17,006.28,357.74,01.41,338.65,CB4,14,+3,02655.2,
$INGLL,4059.74834,N,00435.02515,E,000309.40,A*1F
$INGGA,000309.40,4059.74834,N,00435.02515,E,4,18,00.0,046.415,M,0.0,M,0.0,0000*57
$INVTG,342.17,T,338.65,M,006.28,N,011.63,K,D*37
$INZDA,000309.40,29,04,2023,+02,00*5D
$INDBT,,,002655.2,M,,*00
$NABAT,+0,29/04/23,00:03:10.400,N,40,59.75001,E,004,35.02446,337.89,004.99,342.21,006.28,357.76,01.39,338.66,CB4,14,+4,02655.2,
$INGLL,4059.75001,N,00435.02446,E,000310.40,A*1F
$INGGA,000310.40,4059.75001,N,00435.02446,E,4,18,00.0,046.433,M,0.0,M,0.0,0000*53
$INVTG,342.21,T,338.66,M,006.28,N,011.63,K,D*31
$INZDA,000310.40,29,04,2023,+02,00*55
$INDBT,,,002655.2,M,,*00
$NABAT,+0,29/04/23,00:03:11.400,N,40,59.75168,E,004,35.02376,337.92,005.00,342.22,006.28,357.76,01.39,338.68,CB4,14,+5,02655.2,
$INGLL,4059.75168,N,00435.02376,E,000311.40,A*14
$INGGA,000311.40,4059.75168,N,00435.02376,E,4,18,00.0,046.447,M,0.0,M,0.0,0000*5B
$INVTG,342.22,T,338.68,M,006.28,N,011.64,K,D*3B
$INZDA,000311.40,29,04,2023,+02,00*54
$INDBT,,,002655.2,M,,*00
$NABAT,+0,29/04/23,00:03:12.400,N,40,59.75336,E,004,35.02306,337.95,005.00,342.24,006.29,357.76,01.39,338.68,CB4,14,+6,02655.2,
$INGLL,4059.75336,N,00435.02306,E,000312.40,A*19
$INGGA,000312.40,4059.75336,N,00435.02306,E,4,18,00.0,046.445,M,0.0,M,0.0,0000*54
$INVTG,342.24,T,338.68,M,006.29,N,011.64,K,D*3C
$INZDA,000312.40,29,04,2023,+02,00*57
$INDBT,,,002655.2,M,,*00
$NABAT,+0,29/04/23,00:03:13.400,N,40,59.75503,E,004,35.02238,337.99,005.00,342.27,006.29,357.76,01.39,338.67,CB4,14,+7,02655.2,
$INGLL,4059.75503,N,00435.02238,E,000313.40,A*14
$INGGA,000313.40,4059.75503,N,00435.02238,E,4,18,00.0,046.426,M,0.0,M,0.0,0000*5C
$INVTG,342.27,T,338.67,M,006.29,N,011.64,K,D*30
$INZDA,000313.40,29,04,2023,+02,00*56
$INDBT,,,002655.2,M,,*00
$NABAT,+0,29/04/23,00:03:14.400,N,40,59.75669,E,004,35.02169,338.02,005.00,342.31,006.29,357.76,01.39,338.70,CB4,14,+8,02655.2,
$INGLL,4059.75669,N,00435.02169,E,000314.40,A*1B
$INGGA,000314.40,4059.75669,N,00435.02169,E,4,18,00.0,046.410,M,0.0,M,0.0,0000*56
$INVTG,342.31,T,338.70,M,006.29,N,011.64,K,D*31
$INZDA,000314.40,29,04,2023,+02,00*51
$INDBT,,,002655.2,M,,*00
$NABAT,+0,29/04/23,00:03:15.400,N,40,59.75836,E,004,35.02100,338.04,005.00,342.32,006.29,357.76,01.39,338.72,CB4,14,+9,02655.2,
$INGLL,4059.75836,N,00435.02100,E,000315.40,A*11
$INGGA,000315.40,4059.75836,N,00435.02100,E,4,18,00.0,046.411,M,0.0,M,0.0,0000*5D
$INVTG,342.32,T,338.72,M,006.29,N,011.64,K,D*30
$INZDA,000315.40,29,04,2023,+02,00*50
$INDBT,,,002655.2,M,,*00
$NABAT,+0,29/04/23,00:03:16.400,N,40,59.76002,E,004,35.02030,338.06,005.00,342.33,006.28,357.76,01.39,338.70,CB4,14,+0,02655.2,
$INGLL,4059.76002,N,00435.02030,E,000316.40,A*1C
$INGGA,000316.40,4059.76002,N,00435.02030,E,4,18,00.0,046.421,M,0.0,M,0.0,0000*53
$INVTG,342.33,T,338.70,M,006.28,N,011.64,K,D*32
$INZDA,000316.40,29,04,2023,+02,00*53
$INDBT,,,002655.0,M,,*02
$NABAT,+0,29/04/23,00:03:17.400,N,40,59.76168,E,004,35.01961,338.10,005.00,342.35,006.29,357.76,01.39,338.67,CB4,14,+1,02655.0,
$INGLL,4059.76168,N,00435.01961,E,000317.40,A*1E
$INGGA,000317.40,4059.76168,N,00435.01961,E,4,18,00.0,046.423,M,0.0,M,0.0,0000*53
$INVTG,342.35,T,338.67,M,006.29,N,011.64,K,D*33
$INZDA,000317.40,29,04,2023,+02,00*52
$INDBT,,,002655.0,M,,*02
$NABAT,+0,29/04/23,00:03:18.400,N,40,59.76335,E,004,35.01892,338.15,005.01,342.36,006.29,357.76,01.39,338.64,CB4,14,+2,02655.0,
$INGLL,4059.76335,N,00435.01892,E,000318.40,A*16
$INGGA,000318.40,4059.76335,N,00435.01892,E,4,18,00.0,046.415,M,0.0,M,0.0,0000*5E
$INVTG,342.36,T,338.64,M,006.29,N,011.64,K,D*33
$INZDA,000318.40,29,04,2023,+02,00*5D
$INDBT,,,002655.0,M,,*02
$NABAT,+0,29/04/23,00:03:19.400,N,40,59.76502,E,004,35.01822,338.19,005.01,342.37,006.29,357.76,01.39,338.60,CB4,14,+3,02655.0,
$INGLL,4059.76502,N,00435.01822,E,000319.40,A*1E
$INGGA,000319.40,4059.76502,N,00435.01822,E,4,18,00.0,046.409,M,0.0,M,0.0,0000*5B
$INVTG,342.37,T,338.60,M,006.29,N,011.64,K,D*36
$INZDA,000319.40,29,04,2023,+02,00*5C
$INDBT,,,002655.0,M,,*02
$NABAT,+0,29/04/23,00:03:20.400,N,40,59.76669,E,004,35.01753,338.23,005.01,342.38,006.29,357.80,01.37,338.57,CB4,14,+4,02655.0,
$INGLL,4059.76669,N,00435.01753,E,000320.40,A*13
$INGGA,000320.40,4059.76669,N,00435.01753,E,4,18,00.0,046.413,M,0.0,M,0.0,0000*5D
$INVTG,342.38,T,338.57,M,006.29,N,011.65,K,D*3C
$INZDA,000320.40,29,04,2023,+02,00*56
$INDBT,,,002654.8,M,,*0B
$NABAT,+0,29/04/23,00:03:21.400,N,40,59.76837,E,004,35.01684,338.27,005.02,342.41,006.29,357.80,01.37,338.55,CB4,14,+5,02654.8,
$INGLL,4059.76837,N,00435.01684,E,000321.40,A*1C
$INGGA,000321.40,4059.76837,N,00435.01684,E,4,18,00.0,046.424,M,0.0,M,0.0,0000*56
$INVTG,342.41,T,338.55,M,006.29,N,011.65,K,D*30
$INZDA,000321.40,29,04,2023,+02,00*57
$INDBT,,,002654.8,M,,*0B
$NABAT,+0,29/04/23,00:03:22.400,N,40,59.77004,E,004,35.01615,338.30,005.02,342.43,006.29,357.80,01.37,338.50,CB4,14,+6,02654.8,
$INGLL,4059.77004,N,00435.01615,E,000322.40,A*1E
$INGGA,000322.40,4059.77004,N,00435.01615,E,4,18,00.0,046.427,M,0.0,M,0.0,0000*57
$INVTG,342.43,T,338.50,M,006.29,N,011.65,K,D*37
$INZDA,000322.40,29,04,2023,+02,00*54
$INDBT,,,002654.8,M,,*0B
$NABAT,+0,29/04/23,00:03:23.400,N,40,59.77171,E,004,35.01545,338.34,005.02,342.44,006.29,357.80,01.37,338.46,CB4,14,+7,02654.8,
$INGLL,4059.77171,N,00435.01545,E,000323.40,A*1A
$INGGA,000323.40,4059.77171,N,00435.01545,E,4,18,00.0,046.420,M,0.0,M,0.0,0000*54
$INVTG,342.44,T,338.46,M,006.29,N,011.65,K,D*37
$INZDA,000323.40,29,04,2023,+02,00*55
$INDBT,,,002654.8,M,,*0B
$NABAT,+0,29/04/23,00:03:24.400,N,40,59.77338,E,004,35.01475,338.37,005.03,342.44,006.29,357.80,01.37,338.42,CB4,14,+8,02654.8,
$INGLL,4059.77338,N,00435.01475,E,000324.40,A*10
$INGGA,000324.40,4059.77338,N,00435.01475,E,4,18,00.0,046.406,M,0.0,M,0.0,0000*5A
$INVTG,342.44,T,338.42,M,006.29,N,011.65,K,D*33
$INZDA,000324.40,29,04,2023,+02,00*52
$INDBT,,,002654.8,M,,*0B
$NABAT,+0,29/04/23,00:03:25.400,N,40,59.77504,E,004,35.01405,338.39,005.04,342.43,006.29,357.80,01.37,338.36,CB4,14,+9,02654.8,
$INGLL,4059.77504,N,00435.01405,E,000325.40,A*1F
$INGGA,000325.40,4059.77504,N,00435.01405,E,4,18,00.0,046.391,M,0.0,M,0.0,0000*5C
$INVTG,342.43,T,338.36,M,006.29,N,011.65,K,D*37
$INZDA,000325.40,29,04,2023,+02,00*53
$INDBT,,,002654.8,M,,*0B
$NABAT,+0,29/04/23,00:03:26.400,N,40,59.77670,E,004,35.01336,338.42,005.04,342.44,006.29,357.80,01.37,338.31,CB4,14,+0,02654.8,
$INGLL,4059.77670,N,00435.01336,E,000326.40,A*1B
$INGGA,000326.40,4059.77670,N,00435.01336,E,4,18,00.0,046.389,M,0.0,M,0.0,0000*51
$INVTG,342.44,T,338.31,M,006.29,N,011.65,K,D*37
$INZDA,000326.40,29,04,2023,+02,00*50
$INDBT,,,002654.8,M,,*0B
$NABAT,+0,29/04/23,00:03:27.400,N,40,59.77836,E,004,35.01266,338.45,005.04,342.44,006.29,357.80,01.37,338.28,CB4,14,+1,02654.8,
$INGLL,4059.77836,N,00435.01266,E,000327.40,A*12
$INGGA,000327.40,4059.77836,N,00435.01266,E,4,18,00.0,046.405,M,0.0,M,0.0,0000*5B
$INVTG,342.44,T,338.28,M,006.29,N,011.65,K,D*3F
$INZDA,000327.40,29,04,2023,+02,00*51
$INDBT,,,002654.8,M,,*0B
$NABAT,+0,29/04/23,00:03:28.400,N,40,59.78003,E,004,35.01196,338.46,005.04,342.43,006.29,357.80,01.37,338.24,CB4,14,+2,02654.8,
$INGLL,4059.78003,N,00435.01196,E,000328.40,A*10
$INGGA,000328.40,4059.78003,N,00435.01196,E,4,18,00.0,046.431,M,0.0,M,0.0,0000*5E
$INVTG,342.43,T,338.24,M,006.29,N,011.65,K,D*34
$INZDA,000328.40,29,04,2023,+02,00*5E
$INDBT,,,002654.6,M,,*05
$NABAT,+0,29/04/23,00:03:29.400,N,40,59.78170,E,004,35.01126,338.48,005.05,342.44,006.29,357.80,01.37,338.17,CB4,14,+3,02654.6,
$INGLL,4059.78170,N,00435.01126,E,000329.40,A*1F
$INGGA,000329.40,4059.78170,N,00435.01126,E,4,18,00.0,046.435,M,0.0,M,0.0,0000*55
$INVTG,342.44,T,338.17,M,006.29,N,011.65,K,D*33
$INZDA,000329.40,29,04,2023,+02,00*5F
$INDBT,,,002654.6,M,,*05
$NABAT,+0,29/04/23,00:03:30.400,N,40,59.78337,E,004,35.01056,338.50,005.05,342.44,006.29,357.82,01.34,338.10,CB4,14,+4,02654.6,
$INGLL,4059.78337,N,00435.01056,E,000330.40,A*10
$INGGA,000330.40,4059.78337,N,00435.01056,E,4,18,00.0,046.411,M,0.0,M,0.0,0000*5C
$INVTG,342.44,T,338.10,M,006.29,N,011.65,K,D*34
$INZDA,000330.40,29,04,2023,+02,00*57
$INDBT,,,002654.6,M,,*05
$NABAT,+0,29/04/23,00:03:31.400,N,40,59.78504,E,004,35.00986,338.52,005.06,342.44,006.29,357.82,01.34,338.04,CB4,14,+5,02654.6,
$INGLL,4059.78504,N,00435.00986,E,000331.40,A*12
$INGGA,000331.40,4059.78504,N,00435.00986,E,4,18,00.0,046.401,M,0.0,M,0.0,0000*5F
$INVTG,342.44,T,338.04,M,006.29,N,011.65,K,D*31
$INZDA,000331.40,29,04,2023,+02,00*56
$INDBT,,,002654.6,M,,*05
$NABAT,+0,29/04/23,00:03:32.400,N,40,59.78670,E,004,35.00915,338.54,005.06,342.42,006.29,357.82,01.34,337.99,CB4,14,+6,02654.6,
$INGLL,4059.78670,N,00435.00915,E,000332.40,A*1B
$INGGA,000332.40,4059.78670,N,00435.00915,E,4,18,00.0,046.414,M,0.0,M,0.0,0000*52
$INVTG,342.42,T,337.99,M,006.29,N,011.65,K,D*3C
$INZDA,000332.40,29,04,2023,+02,00*55
$NABAT,+0,29/04/23,00:03:33.400,N,40,59.78837,E,004,35.00845,338.55,005.07,342.41,006.29,357.82,01.34,337.97,CB4,14,+6,02654.6,
$INGLL,4059.78837,N,00435.00845,E,000333.40,A*13
$INGGA,000333.40,4059.78837,N,00435.00845,E,4,18,00.0,046.427,M,0.0,M,0.0,0000*5A
$INVTG,342.41,T,337.97,M,006.29,N,011.65,K,D*31
$INZDA,000333.40,29,04,2023,+02,00*54
$INDBT,,,002654.5,M,,*06
$NABAT,+0,29/04/23,00:03:34.400,N,40,59.79003,E,004,35.00774,338.54,005.07,342.40,006.29,357.82,01.34,337.96,CB4,14,+7,02654.5,
$INGLL,4059.79003,N,00435.00774,E,000334.40,A*17
$INGGA,000334.40,4059.79003,N,00435.00774,E,4,18,00.0,046.416,M,0.0,M,0.0,0000*5C
$INVTG,342.40,T,337.96,M,006.29,N,011.65,K,D*31
$INZDA,000334.40,29,04,2023,+02,00*53
$INDBT,,,002654.5,M,,*06
$NABAT,+0,29/04/23,00:03:35.400,N,40,59.79169,E,004,35.00704,338.53,005.07,342.39,006.29,357.82,01.34,337.92,CB4,14,+8,02654.5,
$INGLL,4059.79169,N,00435.00704,E,000335.40,A*1C
$INGGA,000335.40,4059.79169,N,00435.00704,E,4,18,00.0,046.395,M,0.0,M,0.0,0000*5B
$INVTG,342.39,T,337.92,M,006.29,N,011.65,K,D*3B
$INZDA,000335.40,29,04,2023,+02,00*52
$INDBT,,,002654.5,M,,*06
$NABAT,+0,29/04/23,00:03:36.400,N,40,59.79335,E,004,35.00633,338.51,005.07,342.38,006.29,357.82,01.34,337.88,CB4,14,+9,02654.5,
$INGLL,4059.79335,N,00435.00633,E,000336.40,A*11
$INGGA,000336.40,4059.79335,N,00435.00633,E,4,18,00.0,046.396,M,0.0,M,0.0,0000*55
$INVTG,342.38,T,337.88,M,006.29,N,011.65,K,D*31
$INZDA,000336.40,29,04,2023,+02,00*51
$INDBT,,,002654.5,M,,*06
$NABAT,+0,29/04/23,00:03:37.400,N,40,59.79501,E,004,35.00563,338.51,005.08,342.36,006.29,357.82,01.34,337.81,CB4,14,+0,02654.5,
$INGLL,4059.79501,N,00435.00563,E,000337.40,A*17
$INGGA,000337.40,4059.79501,N,00435.00563,E,4,18,00.0,046.421,M,0.0,M,0.0,0000*58
$INVTG,342.36,T,337.81,M,006.29,N,011.64,K,D*37
$INZDA,000337.40,29,04,2023,+02,00*50
$INDBT,,,002654.6,M,,*05
$NABAT,+0,29/04/23,00:03:38.400,N,40,59.79667,E,004,35.00491,338.51,005.08,342.34,006.29,357.82,01.34,337.73,CB4,14,+1,02654.6,
$INGLL,4059.79667,N,00435.00491,E,000338.40,A*17
$INGGA,000338.40,4059.79667,N,00435.00491,E,4,18,00.0,046.438,M,0.0,M,0.0,0000*50
$INVTG,342.34,T,337.73,M,006.29,N,011.64,K,D*38
$INZDA,000338.40,29,04,2023,+02,00*5F
$INDBT,,,002654.6,M,,*05
$NABAT,+0,29/04/23,00:03:39.400,N,40,59.79834,E,004,35.00420,338.51,005.09,342.33,006.29,357.82,01.34,337.67,CB4,14,+2,02654.6,
$INGLL,4059.79834,N,00435.00420,E,000339.40,A*14
$INGGA,000339.40,4059.79834,N,00435.00420,E,4,18,00.0,046.432,M,0.0,M,0.0,0000*59
$INVTG,342.33,T,337.67,M,006.29,N,011.65,K,D*3B
$INZDA,000339.40,29,04,2023,+02,00*5E
$INDBT,,,002654.6,M,,*05
$NABAT,+0,29/04/23,00:03:40.400,N,40,59.80000,E,004,35.00349,338.51,005.09,342.32,006.29,357.87,01.30,337.62,CB4,14,+3,02654.6,
$INGLL,4059.80000,N,00435.00349,E,000340.40,A*1B
$INGGA,000340.40,4059.80000,N,00435.00349,E,4,18,00.0,046.414,M,0.0,M,0.0,0000*52
$INVTG,342.32,T,337.62,M,006.29,N,011.65,K,D*3F
$INZDA,000340.40,29,04,2023,+02,00*50
$INDBT,,,002654.6,M,,*05
$NABAT,+0,29/04/23,00:03:41.400,N,40,59.80167,E,004,35.00278,338.50,005.09,342.31,006.29,357.87,01.30,337.57,CB4,14,+4,02654.6,
$INGLL,4059.80167,N,00435.00278,E,000341.40,A*19
$INGGA,000341.40,4059.80167,N,00435.00278,E,4,18,00.0,046.411,M,0.0,M,0.0,0000*55
$INVTG,342.31,T,337.57,M,006.29,N,011.65,K,D*3A
$INZDA,000341.40,29,04,2023,+02,00*51
$INDBT,,,002654.6,M,,*05
$NABAT,+0,29/04/23,00:03:42.400,N,40,59.80332,E,004,35.00206,338.48,005.09,342.28,006.29,357.87,01.30,337.54,CB4,14,+5,02654.6,
$INGLL,4059.80332,N,00435.00206,E,000342.40,A*11
$INGGA,000342.40,4059.80332,N,00435.00206,E,4,18,00.0,046.424,M,0.0,M,0.0,0000*5B
$INVTG,342.28,T,337.54,M,006.29,N,011.65,K,D*31
$INZDA,000342.40,29,04,2023,+02,00*52
$INDBT,,,002654.6,M,,*05
$NABAT,+0,29/04/23,00:03:43.400,N,40,59.80497,E,004,35.00134,338.46,005.09,342.25,006.29,357.87,01.30,337.52,CB4,14,+6,02654.6,
$INGLL,4059.80497,N,00435.00134,E,000343.40,A*1A
$INGGA,000343.40,4059.80497,N,00435.00134,E,4,18,00.0,046.424,M,0.0,M,0.0,0000*50
$INVTG,342.25,T,337.52,M,006.29,N,011.64,K,D*3B
$INZDA,000343.40,29,04,2023,+02,00*53
$INDBT,,,002654.6,M,,*05
$NABAT,+0,29/04/23,00:03:44.400,N,40,59.80662,E,004,35.00063,338.43,005.09,342.22,006.28,357.87,01.30,337.49,CB4,14,+7,02654.6,
$INGLL,4059.80662,N,00435.00063,E,000344.40,A*16
$INGGA,000344.40,4059.80662,N,00435.00063,E,4,18,00.0,046.417,M,0.0,M,0.0,0000*5C
$INVTG,342.22,T,337.49,M,006.28,N,011.64,K,D*37
$INZDA,000344.40,29,04,2023,+02,00*54
$INDBT,,,002654.6,M,,*05
$NABAT,+0,29/04/23,00:03:45.400,N,40,59.80826,E,004,34.99991,338.41,005.09,342.19,006.28,357.87,01.30,337.44,CB4,14,+8,02654.6,
$INGLL,4059.80826,N,00434.99991,E,000345.40,A*1C
$INGGA,000345.40,4059.80826,N,00434.99991,E,4,18,00.0,046.422,M,0.0,M,0.0,0000*50
$INVTG,342.19,T,337.44,M,006.28,N,011.63,K,D*35
$INZDA,000345.40,29,04,2023,+02,00*55
$INDBT,,,002653.7,M,,*03
$NABAT,+0,29/04/23,00:03:46.400,N,40,59.80992,E,004,34.99920,338.39,005.08,342.18,006.28,357.87,01.30,337.41,CB4,14,+9,02653.7,
$INGLL,4059.80992,N,00434.99920,E,000346.40,A*1B
$INGGA,000346.40,4059.80992,N,00434.99920,E,4,18,00.0,046.433,M,0.0,M,0.0,0000*57
$INVTG,342.18,T,337.41,M,006.28,N,011.63,K,D*31
$INZDA,000346.40,29,04,2023,+02,00*56
$INDBT,,,002653.7,M,,*03
$NABAT,+0,29/04/23,00:03:47.400,N,40,59.81158,E,004,34.99848,338.36,005.08,342.16,006.28,357.87,01.30,337.37,CB4,14,+0,02653.7,
$INGLL,4059.81158,N,00434.99848,E,000347.40,A*1A
$INGGA,000347.40,4059.81158,N,00434.99848,E,4,18,00.0,046.437,M,0.0,M,0.0,0000*52
$INVTG,342.16,T,337.37,M,006.28,N,011.63,K,D*3E
$INZDA,000347.40,29,04,2023,+02,00*57
$INDBT,,,002653.7,M,,*03
$NABAT,+0,29/04/23,00:03:48.400,N,40,59.81324,E,004,34.99775,338.34,005.07,342.13,006.28,357.87,01.30,337.31,CB4,14,+1,02653.7,
$INGLL,4059.81324,N,00434.99775,E,000348.40,A*1D
$INGGA,000348.40,4059.81324,N,00434.99775,E,4,18,00.0,046.436,M,0.0,M,0.0,0000*54
$INVTG,342.13,T,337.31,M,006.28,N,011.63,K,D*3D
$INZDA,000348.40,29,04,2023,+02,00*58
$INDBT,,,002653.7,M,,*03
$NABAT,+0,29/04/23,00:03:49.400,N,40,59.81491,E,004,34.99702,338.32,005.07,342.10,006.28,357.87,01.30,337.26,CB4,14,+2,02653.7,
$INGLL,4059.81491,N,00434.99702,E,000349.40,A*15
$INGGA,000349.40,4059.81491,N,00434.99702,E,4,18,00.0,046.440,M,0.0,M,0.0,0000*5D
$INVTG,342.10,T,337.26,M,006.28,N,011.64,K,D*3F
$INZDA,000349.40,29,04,2023,+02,00*59
$INDBT,,,002654.5,M,,*06
$NABAT,+0,29/04/23,00:03:50.400,N,40,59.81656,E,004,34.99629,338.30,005.07,342.08,006.28,357.89,01.26,337.28,CB4,14,+3,02654.5,
$INGLL,4059.81656,N,00434.99629,E,000350.40,A*1C
$INGGA,000350.40,4059.81656,N,00434.99629,E,4,18,00.0,046.448,M,0.0,M,0.0,0000*5C
$INVTG,342.08,T,337.28,M,006.28,N,011.64,K,D*38
$INZDA,000350.40,29,04,2023,+02,00*51
$INDBT,,,002654.5,M,,*06
$NABAT,+0,29/04/23,00:03:51.400,N,40,59.81822,E,004,34.99556,338.25,005.07,342.05,006.28,357.89,01.26,337.33,CB4,14,+4,02654.5,
$INGLL,4059.81822,N,00434.99556,E,000351.40,A*1B
$INGGA,000351.40,4059.81822,N,00434.99556,E,4,18,00.0,046.448,M,0.0,M,0.0,0000*5B
$INVTG,342.05,T,337.33,M,006.28,N,011.63,K,D*38
$INZDA,000351.40,29,04,2023,+02,00*50
$INDBT,,,002654.5,M,,*06
$NABAT,+0,29/04/23,00:03:52.400,N,40,59.81986,E,004,34.99483,338.19,005.06,342.01,006.28,357.89,01.26,337.35,CB4,14,+5,02654.5,
$INGLL,4059.81986,N,00434.99483,E,000352.40,A*1E
$INGGA,000352.40,4059.81986,N,00434.99483,E,4,18,00.0,046.431,M,0.0,M,0.0,0000*50
$INVTG,342.01,T,337.35,M,006.28,N,011.63,K,D*3A
$INZDA,000352.40,29,04,2023,+02,00*53
$INDBT,,,002654.5,M,,*06
$NABAT,+0,29/04/23,00:03:53.400,N,40,59.82151,E,004,34.99411,338.15,005.06,341.99,006.28,357.89,01.26,337.34,CB4,14,+6,02654.5,
$INGLL,4059.82151,N,00434.99411,E,000353.40,A*15
$INGGA,000353.40,4059.82151,N,00434.99411,E,4,18,00.0,046.413,M,0.0,M,0.0,0000*5B
$INVTG,341.99,T,337.34,M,006.28,N,011.63,K,D*39
$INZDA,000353.40,29,04,2023,+02,00*52
$INDBT,,,002653.1,M,,*05
$NABAT,+0,29/04/23,00:03:54.400,N,40,59.82316,E,004,34.99338,338.11,005.05,341.97,006.28,357.89,01.26,337.31,CB4,14,+7,02653.1,
$INGLL,4059.82316,N,00434.99338,E,000354.40,A*1F
$INGGA,000354.40,4059.82316,N,00434.99338,E,4,18,00.0,046.420,M,0.0,M,0.0,0000*51
$INVTG,341.97,T,337.31,M,006.28,N,011.62,K,D*33
$INZDA,000354.40,29,04,2023,+02,00*55
$INDBT,,,002653.1,M,,*05
$NABAT,+0,29/04/23,00:03:55.400,N,40,59.82481,E,004,34.99266,338.08,005.04,341.94,006.28,357.89,01.26,337.29,CB4,14,+8,02653.1,
$INGLL,4059.82481,N,00434.99266,E,000355.40,A*1D
$INGGA,000355.40,4059.82481,N,00434.99266,E,4,18,00.0,046.445,M,0.0,M,0.0,0000*50
$INVTG,341.94,T,337.29,M,006.28,N,011.62,K,D*39
$INZDA,000355.40,29,04,2023,+02,00*54
$INDBT,,,002653.1,M,,*05
$NABAT,+0,29/04/23,00:03:56.400,N,40,59.82646,E,004,34.99193,338.05,005.04,341.92,006.27,357.89,01.26,337.28,CB4,14,+9,02653.1,
$INGLL,4059.82646,N,00434.99193,E,000356.40,A*1E
$INGGA,000356.40,4059.82646,N,00434.99193,E,4,18,00.0,046.457,M,0.0,M,0.0,0000*50
$INVTG,341.92,T,337.28,M,006.27,N,011.62,K,D*31
$INZDA,000356.40,29,04,2023,+02,00*57
$INDBT,,,002653.1,M,,*05
$NABAT,+0,29/04/23,00:03:57.400,N,40,59.82812,E,004,34.99120,338.03,005.04,341.89,006.28,357.89,01.26,337.24,CB4,14,+0,02653.1,
$INGLL,4059.82812,N,00434.99120,E,000357.40,A*18
$INGGA,000357.40,4059.82812,N,00434.99120,E,4,18,00.0,046.450,M,0.0,M,0.0,0000*51
$INVTG,341.89,T,337.24,M,006.28,N,011.62,K,D*38
$INZDA,000357.40,29,04,2023,+02,00*56
$INDBT,,,002654.4,M,,*07
$NABAT,+0,29/04/23,00:03:58.400,N,40,59.82978,E,004,34.99046,338.01,005.03,341.87,006.28,357.89,01.26,337.21,CB4,14,+1,02654.4,
$INGLL,4059.82978,N,00434.99046,E,000358.40,A*1B
$INGGA,000358.40,4059.82978,N,00434.99046,E,4,18,00.0,046.431,M,0.0,M,0.0,0000*55
$INVTG,341.87,T,337.21,M,006.28,N,011.63,K,D*32
$INZDA,000358.40,29,04,2023,+02,00*59
$INDBT,,,002654.4,M,,*07
$NABAT,+0,29/04/23,00:03:59.400,N,40,59.83144,E,004,34.98973,337.99,005.03,341.86,006.28,357.89,01.26,337.21,CB4,14,+2,02654.4,
$INGLL,4059.83144,N,00434.98973,E,000359.40,A*12
$INGGA,000359.40,4059.83144,N,00434.98973,E,4,18,00.0,046.419,M,0.0,M,0.0,0000*56
$INVTG,341.86,T,337.21,M,006.28,N,011.63,K,D*33
$INZDA,000359.40,29,04,2023,+02,00*58
$INDBT,,,002654.4,M,,*07
$NABAT,+0,29/04/23,00:04:00.400,N,40,59.83309,E,004,34.98901,337.95,005.03,341.84,006.28,357.68,01.25,337.23,CB4,14,+3,02654.4,
$INGLL,4059.83309,N,00434.98901,E,000400.40,A*17
$INGGA,000400.40,4059.83309,N,00434.98901,E,4,18,00.0,046.418,M,0.0,M,0.0,0000*52
$INVTG,341.84,T,337.23,M,006.28,N,011.63,K,D*33
$INZDA,000400.40,29,04,2023,+02,00*53
$INDBT,,,002654.4,M,,*07
$NABAT,+0,29/04/23,00:04:01.400,N,40,59.83473,E,004,34.98828,337.91,005.02,341.83,006.28,357.68,01.25,337.24,CB4,14,+4,02654.4,
$INGLL,4059.83473,N,00434.98828,E,000401.40,A*16
$INGGA,000401.40,4059.83473,N,00434.98828,E,4,18,00.0,046.416,M,0.0,M,0.0,0000*5D
$INVTG,341.83,T,337.24,M,006.28,N,011.62,K,D*32
$INZDA,000401.40,29,04,2023,+02,00*52
$INDBT,,,002654.3,M,,*00
$NABAT,+0,29/04/23,00:04:02.400,N,40,59.83637,E,004,34.98755,337.88,005.02,341.80,006.27,357.68,01.25,337.21,CB4,14,+5,02654.3,
$INGLL,4059.83637,N,00434.98755,E,000402.40,A*12
$INGGA,000402.40,4059.83637,N,00434.98755,E,4,18,00.0,046.414,M,0.0,M,0.0,0000*5B
$INVTG,341.80,T,337.21,M,006.27,N,011.62,K,D*3B
$INZDA,000402.40,29,04,2023,+02,00*51
$INDBT,,,002654.3,M,,*00
$NABAT,+0,29/04/23,00:04:03.400,N,40,59.83802,E,004,34.98682,337.86,005.02,341.78,006.27,357.68,01.25,337.16,CB4,14,+6,02654.3,
$INGLL,4059.83802,N,00434.98682,E,000403.40,A*10
$INGGA,000403.40,4059.83802,N,00434.98682,E,4,18,00.0,046.416,M,0.0,M,0.0,0000*5B
$INVTG,341.78,T,337.16,M,006.27,N,011.61,K,D*3B
$INZDA,000403.40,29,04,2023,+02,00*50
$INDBT,,,002654.3,M,,*00
$NABAT,+0,29/04/23,00:04:04.400,N,40,59.83968,E,004,34.98609,337.85,005.01,341.77,006.27,357.68,01.25,337.12,CB4,14,+7,02654.3,
$INGLL,4059.83968,N,00434.98609,E,000404.40,A*19
$INGGA,000404.40,4059.83968,N,00434.98609,E,4,18,00.0,046.421,M,0.0,M,0.0,0000*56
$INVTG,341.77,T,337.12,M,006.27,N,011.62,K,D*33
$INZDA,000404.40,29,04,2023,+02,00*57
$INDBT,,,002654.3,M,,*00
$NABAT,+0,29/04/23,00:04:05.400,N,40,59.84133,E,004,34.98535,337.84,005.00,341.75,006.27,357.68,01.25,337.10,CB4,14,+8,02654.3,
$INGLL,4059.84133,N,00434.98535,E,000405.40,A*15
$INGGA,000405.40,4059.84133,N,00434.98535,E,4,18,00.0,046.429,M,0.0,M,0.0,0000*52
$INVTG,341.75,T,337.10,M,006.27,N,011.62,K,D*33
$INZDA,000405.40,29,04,2023,+02,00*56
$INDBT,,,002652.7,M,,*02
$NABAT,+0,29/04/23,00:04:06.400,N,40,59.84300,E,004,34.98462,337.82,005.00,341.74,006.28,357.68,01.25,337.07,CB4,14,+9,02652.7,
$INGLL,4059.84300,N,00434.98462,E,000406.40,A*17
$INGGA,000406.40,4059.84300,N,00434.98462,E,4,18,00.0,046.426,M,0.0,M,0.0,0000*5F
$INVTG,341.74,T,337.07,M,006.28,N,011.62,K,D*3B
$INZDA,000406.40,29,04,2023,+02,00*55
$INDBT,,,002652.7,M,,*02
$NABAT,+0,29/04/23,00:04:07.400,N,40,59.84465,E,004,34.98389,337.80,005.00,341.73,006.28,357.68,01.25,337.05,CB4,14,+0,02652.7,
$INGLL,4059.84465,N,00434.98389,E,000407.40,A*10
$INGGA,000407.40,4059.84465,N,00434.98389,E,4,18,00.0,046.407,M,0.0,M,0.0,0000*5B
$INVTG,341.73,T,337.05,M,006.28,N,011.62,K,D*3E
$INZDA,000407.40,29,04,2023,+02,00*54
$INDBT,,,002652.7,M,,*02
$NABAT,+0,29/04/23,00:04:08.400,N,40,59.84630,E,004,34.98316,337.78,004.99,341.72,006.28,357.68,01.25,337.02,CB4,14,+1,02652.7,
$INGLL,4059.84630,N,00434.98316,E,000408.40,A*1B
$INGGA,000408.40,4059.84630,N,00434.98316,E,4,18,00.0,046.388,M,0.0,M,0.0,0000*50
$INVTG,341.72,T,337.02,M,006.28,N,011.62,K,D*38
$INZDA,000408.40,29,04,2023,+02,00*5B
$INDBT,,,002652.7,M,,*02
$NABAT,+0,29/04/23,00:04:09.400,N,40,59.84795,E,004,34.98243,337.76,004.99,341.70,006.27,357.68,01.25,337.00,CB4,14,+2,02652.7,
$INGLL,4059.84795,N,00434.98243,E,000409.40,A*15
$INGGA,000409.40,4059.84795,N,00434.98243,E,4,18,00.0,046.387,M,0.0,M,0.0,0000*51
$INVTG,341.70,T,337.00,M,006.27,N,011.62,K,D*37
$INZDA,000409.40,29,04,2023,+02,00*5A
$INDBT,,,002654.3,M,,*00
$NABAT,+0,29/04/23,00:04:10.400,N,40,59.84959,E,004,34.98169,337.74,004.98,341.68,006.27,357.38,01.26,337.01,CB4,14,+3,02654.3,
$INGLL,4059.84959,N,00434.98169,E,000410.40,A*18
$INGGA,000410.40,4059.84959,N,00434.98169,E,4,18,00.0,046.398,M,0.0,M,0.0,0000*52
$INVTG,341.68,T,337.01,M,006.27,N,011.61,K,D*3C
$INZDA,000410.40,29,04,2023,+02,00*52
$INDBT,,,002654.3,M,,*00
$NABAT,+0,29/04/23,00:04:11.400,N,40,59.85123,E,004,34.98095,337.70,004.98,341.65,006.27,357.38,01.26,337.01,CB4,14,+4,02654.3,
$INGLL,4059.85123,N,00434.98095,E,000411.40,A*1F
$INGGA,000411.40,4059.85123,N,00434.98095,E,4,18,00.0,046.408,M,0.0,M,0.0,0000*5B
$INVTG,341.65,T,337.01,M,006.27,N,011.61,K,D*31
$INZDA,000411.40,29,04,2023,+02,00*53
$INDBT,,,002654.3,M,,*00
$NABAT,+0,29/04/23,00:04:12.400,N,40,59.85288,E,004,34.98021,337.67,004.98,341.62,006.27,357.38,01.26,336.97,CB4,14,+5,02654.3,
$INGLL,4059.85288,N,00434.98021,E,000412.40,A*11
$INGGA,000412.40,4059.85288,N,00434.98021,E,4,18,00.0,046.409,M,0.0,M,0.0,0000*54
$INVTG,341.62,T,336.97,M,006.27,N,011.61,K,D*38
$INZDA,000412.40,29,04,2023,+02,00*50
$INDBT,,,002654.3,M,,*00
$NABAT,+0,29/04/23,00:04:13.400,N,40,59.85453,E,004,34.97947,337.66,004.98,341.60,006.27,357.38,01.26,336.91,CB4,14,+6,02654.3,
$INGLL,4059.85453,N,00434.97947,E,000413.40,A*16
$INGGA,000413.40,4059.85453,N,00434.97947,E,4,18,00.0,046.405,M,0.0,M,0.0,0000*5F
$INVTG,341.60,T,336.91,M,006.27,N,011.61,K,D*3C
$INZDA,000413.40,29,04,2023,+02,00*51
$INDBT,,,002654.3,M,,*00
$NABAT,+0,29/04/23,00:04:14.400,N,40,59.85618,E,004,34.97874,337.65,004.98,341.59,006.27,357.38,01.26,336.87,CB4,14,+7,02654.3,
$INGLL,4059.85618,N,00434.97874,E,000414.40,A*1D
$INGGA,000414.40,4059.85618,N,00434.97874,E,4,18,00.0,046.401,M,0.0,M,0.0,0000*50
$INVTG,341.59,T,336.87,M,006.27,N,011.61,K,D*31
$INZDA,000414.40,29,04,2023,+02,00*56
$INDBT,,,002654.3,M,,*00
$NABAT,+0,29/04/23,00:04:15.400,N,40,59.85783,E,004,34.97800,337.64,004.97,341.58,006.27,357.38,01.26,336.85,CB4,14,+8,02654.3,
$INGLL,4059.85783,N,00434.97800,E,000415.40,A*1C
$INGGA,000415.40,4059.85783,N,00434.97800,E,4,18,00.0,046.393,M,0.0,M,0.0,0000*5D
$INVTG,341.58,T,336.85,M,006.27,N,011.61,K,D*32
$INZDA,000415.40,29,04,2023,+02,00*57
$INDBT,,,002654.3,M,,*00
$NABAT,+0,29/04/23,00:04:16.400,N,40,59.85949,E,004,34.97727,337.62,004.97,341.58,006.27,357.38,01.26,336.83,CB4,14,+9,02654.3,
$INGLL,4059.85949,N,00434.97727,E,000416.40,A*1D
$INGGA,000416.40,4059.85949,N,00434.97727,E,4,18,00.0,046.389,M,0.0,M,0.0,0000*57
$INVTG,341.58,T,336.83,M,006.27,N,011.61,K,D*34
$INZDA,000416.40,29,04,2023,+02,00*54
$INDBT,,,002654.3,M,,*00
$NABAT,+0,29/04/23,00:04:17.400,N,40,59.86113,E,004,34.97654,337.60,004.97,341.57,006.27,357.38,01.26,336.80,CB4,14,+0,02654.3,
$INGLL,4059.86113,N,00434.97654,E,000417.40,A*1D
$INGGA,000417.40,4059.86113,N,00434.97654,E,4,18,00.0,046.400,M,0.0,M,0.0,0000*51
$INVTG,341.57,T,336.80,M,006.27,N,011.61,K,D*38
$INZDA,000417.40,29,04,2023,+02,00*55
$INDBT,,,002653.7,M,,*03
$NABAT,+0,29/04/23,00:04:18.400,N,40,59.86277,E,004,34.97579,337.58,004.96,341.53,006.27,357.38,01.26,336.76,CB4,14,+1,02653.7,
$INGLL,4059.86277,N,00434.97579,E,000418.40,A*1F
$INGGA,000418.40,4059.86277,N,00434.97579,E,4,18,00.0,046.413,M,0.0,M,0.0,0000*51
$INVTG,341.53,T,336.76,M,006.27,N,011.61,K,D*35
$INZDA,000418.40,29,04,2023,+02,00*5A
$INDBT,,,002653.7,M,,*03
$NABAT,+0,29/04/23,00:04:19.400,N,40,59.86441,E,004,34.97505,337.57,004.96,341.51,006.26,357.38,01.26,336.74,CB4,14,+2,02653.7,
$INGLL,4059.86441,N,00434.97505,E,000419.40,A*16
$INGGA,000419.40,4059.86441,N,00434.97505,E,4,18,00.0,046.407,M,0.0,M,0.0,0000*5D
$INVTG,341.51,T,336.74,M,006.26,N,011.60,K,D*35
$INZDA,000419.40,29,04,2023,+02,00*5B
$INDBT,,,002653.7,M,,*03
$NABAT,+0,29/04/23,00:04:20.400,N,40,59.86605,E,004,34.97431,337.55,004.96,341.49,006.26,356.99,01.30,336.74,CB4,14,+3,02653.7,
$INGLL,4059.86605,N,00434.97431,E,000420.40,A*18
$INGGA,000420.40,4059.86605,N,00434.97431,E,4,18,00.0,046.397,M,0.0,M,0.0,0000*5D
$INVTG,341.49,T,336.74,M,006.26,N,011.60,K,D*3C
$INZDA,000420.40,29,04,2023,+02,00*51
$INDBT,,,002653.7,M,,*03
$NABAT,+0,29/04/23,00:04:21.400,N,40,59.86770,E,004,34.97357,337.52,004.96,341.47,006.26,356.99,01.30,336.70,CB4,14,+4,02653.7,
$INGLL,4059.86770,N,00434.97357,E,000421.40,A*1D
$INGGA,000421.40,4059.86770,N,00434.97357,E,4,18,00.0,046.410,M,0.0,M,0.0,0000*50
$INVTG,341.47,T,336.70,M,006.26,N,011.60,K,D*36
$INZDA,000421.40,29,04,2023,+02,00*50
$INDBT,,,002654.5,M,,*06
$NABAT,+0,29/04/23,00:04:22.400,N,40,59.86935,E,004,34.97283,337.50,004.96,341.46,006.26,356.99,01.30,336.63,CB4,14,+5,02654.5,
$INGLL,4059.86935,N,00434.97283,E,000422.40,A*19
$INGGA,000422.40,4059.86935,N,00434.97283,E,4,18,00.0,046.429,M,0.0,M,0.0,0000*5E
$INVTG,341.46,T,336.63,M,006.26,N,011.60,K,D*35
$INZDA,000422.40,29,04,2023,+02,00*53
$INDBT,,,002654.5,M,,*06
$NABAT,+0,29/04/23,00:04:23.400,N,40,59.87100,E,004,34.97209,337.49,004.96,341.46,006.26,356.99,01.30,336.59,CB4,14,+6,02654.5,
$INGLL,4059.87100,N,00434.97209,E,000423.40,A*15
$INGGA,000423.40,4059.87100,N,00434.97209,E,4,18,00.0,046.420,M,0.0,M,0.0,0000*5B
$INVTG,341.46,T,336.59,M,006.26,N,011.60,K,D*3C
$INZDA,000423.40,29,04,2023,+02,00*52
$INDBT,,,002654.5,M,,*06
$NABAT,+0,29/04/23,00:04:24.400,N,40,59.87264,E,004,34.97136,337.47,004.96,341.45,006.26,356.99,01.30,336.55,CB4,14,+7,02654.5,
$INGLL,4059.87264,N,00434.97136,E,000424.40,A*1C
$INGGA,000424.40,4059.87264,N,00434.97136,E,4,18,00.0,046.396,M,0.0,M,0.0,0000*58
$INVTG,341.45,T,336.55,M,006.26,N,011.60,K,D*33
$INZDA,000424.40,29,04,2023,+02,00*55
$INDBT,,,002654.5,M,,*06
$NABAT,+0,29/04/23,00:04:25.400,N,40,59.87428,E,004,34.97061,337.45,004.96,341.42,006.26,356.99,01.30,336.52,CB4,14,+8,02654.5,
$INGLL,4059.87428,N,00434.97061,E,000425.40,A*10
$INGGA,000425.40,4059.87428,N,00434.97061,E,4,18,00.0,046.387,M,0.0,M,0.0,0000*54
$INVTG,341.42,T,336.52,M,006.26,N,011.60,K,D*33
$INZDA,000425.40,29,04,2023,+02,00*54
$INDBT,,,002654.2,M,,*01
$NABAT,+0,29/04/23,00:04:26.400,N,40,59.87592,E,004,34.96986,337.43,004.96,341.38,006.26,356.99,01.30,336.48,CB4,14,+9,02654.2,
$INGLL,4059.87592,N,00434.96986,E,000426.40,A*12
$INGGA,000426.40,4059.87592,N,00434.96986,E,4,18,00.0,046.401,M,0.0,M,0.0,0000*5F
$INVTG,341.38,T,336.48,M,006.26,N,011.59,K,D*3F
$INZDA,000426.40,29,04,2023,+02,00*57
$INDBT,,,002654.2,M,,*01
$NABAT,+0,29/04/23,00:04:27.400,N,40,59.87755,E,004,34.96911,337.41,004.96,341.35,006.26,356.99,01.30,336.44,CB4,14,+0,02654.2,
$INGLL,4059.87755,N,00434.96911,E,000427.40,A*14
$INGGA,000427.40,4059.87755,N,00434.96911,E,4,18,00.0,046.418,M,0.0,M,0.0,0000*51
$INVTG,341.35,T,336.44,M,006.26,N,011.59,K,D*3E
$INZDA,000427.40,29,04,2023,+02,00*56
$INDBT,,,002654.2,M,,*01
$NABAT,+0,29/04/23,00:04:28.400,N,40,59.87919,E,004,34.96836,337.39,004.95,341.34,006.26,356.99,01.30,336.40,CB4,14,+1,02654.2,
$INGLL,4059.87919,N,00434.96836,E,000428.40,A*19
$INGGA,000428.40,4059.87919,N,00434.96836,E,4,18,00.0,046.422,M,0.0,M,0.0,0000*55
$INVTG,341.34,T,336.40,M,006.26,N,011.59,K,D*3B
$INZDA,000428.40,29,04,2023,+02,00*59
$INDBT,,,002654.2,M,,*01
$NABAT,+0,29/04/23,00:04:29.400,N,40,59.88084,E,004,34.96762,337.37,004.95,341.33,006.26,356.99,01.30,336.36,CB4,14,+2,02654.2,
$INGLL,4059.88084,N,00434.96762,E,000429.40,A*14
$INGGA,000429.40,4059.88084,N,00434.96762,E,4,18,00.0,046.417,M,0.0,M,0.0,0000*5E
$INVTG,341.33,T,336.36,M,006.26,N,011.59,K,D*3D
$INZDA,000429.40,29,04,2023,+02,00*58
$INDBT,,,002653.5,M,,*01
